City_ID,City,Lat,Lng,Max Temp,Humidity,Cloudiness,Wind Speed,Country,Date
0,port-aux-francais,-49.35,70.2167,2.16,77,51,16.1,TF,1695740112
1,waitangi,-43.9535,-176.5597,12.68,98,100,6.26,NZ,1695740112
2,grytviken,-54.2811,-36.5092,-1.31,75,27,2.03,GS,1695740112
3,talnakh,69.4865,88.3972,2.34,99,100,3.65,RU,1695740113
4,lebu,-37.6167,-73.65,10.4,61,94,5.31,CL,1695740113
5,saint-francois,46.4154,3.9054,26.49,44,0,1.54,FR,1695740113
6,hermanus,-34.4187,19.2345,16.41,72,19,3.91,ZA,1695740113
7,kapuskasing,49.4169,-82.4331,12.0,82,20,1.54,CA,1695740114
8,yuzhno-kurilsk,44.0306,145.8556,15.42,94,90,2.24,RU,1695740114
9,tura,25.5198,90.2201,23.86,94,3,1.0,IN,1695740114
10,albany,42.6001,-73.9662,15.45,78,100,0.89,US,1695739750
11,bilibino,68.0546,166.4372,-5.03,90,37,1.86,RU,1695740115
12,whitehorse,60.7161,-135.0538,3.43,95,100,2.06,CA,1695739974
13,klyuchi,52.2667,79.1667,8.29,63,100,3.52,RU,1695740115
14,north bend,43.4065,-124.2243,14.48,94,0,3.6,US,1695740115
15,invercargill,-46.4,168.35,3.34,91,18,1.79,NZ,1695739843
16,bethel,41.3712,-73.414,15.76,85,100,4.12,US,1695739931
17,blackmans bay,-43.0167,147.3167,6.4,91,3,1.79,AU,1695740116
18,olyokminsk,60.3736,120.4264,8.61,91,27,0.76,RU,1695740116
19,ribeira grande,38.5167,-28.7,24.22,78,75,10.8,PT,1695740116
20,severo-yeniseyskiy,60.3725,93.0408,0.24,89,7,2.2,RU,1695740116
21,turpan,42.9333,89.1667,20.47,27,0,1.77,CN,1695740117
22,tazovsky,67.4667,78.7,2.51,84,10,4.97,RU,1695740117
23,ilulissat,69.2167,-51.1,0.01,64,75,4.12,GL,1695740117
24,narok,-1.0783,35.8601,20.05,64,95,0.57,KE,1695740117
25,floro,61.5996,5.0328,18.04,63,75,7.72,NO,1695740118
26,isafjordur,66.0755,-23.124,9.02,57,100,13.38,IS,1695740118
27,porto seguro,-16.4497,-39.0647,29.29,65,40,8.23,BR,1695740118
28,botou,38.0667,116.5667,16.51,94,15,3.2,CN,1695740118
29,mount pearl,47.5166,-52.7813,13.8,65,0,4.02,CA,1695740118
30,ust-nera,64.5667,143.2,1.53,90,90,2.67,RU,1695740119
31,ancud,-41.8697,-73.8203,8.84,64,100,4.03,CL,1695740119
32,hengchun,22.0042,120.7439,28.36,73,4,6.32,TW,1695740119
33,mount gambier,-37.8333,140.7667,7.97,79,100,2.19,AU,1695740119
34,tacna,-18.0056,-70.2483,16.5,82,75,1.54,PE,1695740120
35,vorgashor,67.5833,63.95,2.55,80,100,1.92,RU,1695740120
36,ushuaia,-54.8,-68.3,8.81,53,75,4.63,AR,1695739845
37,kuta,-8.7233,115.1723,25.97,94,20,2.24,ID,1695740120
38,petropavlovsk-kamchatsky,53.0452,158.6483,1.33,93,0,2.0,RU,1695740120
39,cestos city,5.46,-9.5828,27.61,80,70,5.03,LR,1695740121
40,enewetak,11.3474,162.3373,28.83,77,95,6.63,MH,1695740121
41,monster,52.0258,4.175,22.79,62,100,3.6,NL,1695740121
42,hawaiian paradise park,19.5933,-154.9731,21.13,94,40,2.57,US,1695740121
43,papar,5.7333,115.9333,27.0,88,100,1.71,MY,1695740121
44,saipan,15.1355,145.701,27.39,94,75,4.12,MP,1695740122
45,mount isa,-20.7333,139.5,24.87,25,0,1.03,AU,1695740122
46,kone,-21.0595,164.8658,16.34,77,28,1.96,NC,1695740122
47,kose,40.21,39.6511,19.66,38,6,2.96,TR,1695740122
48,nova olinda do norte,-3.8881,-59.0942,39.54,28,9,1.9,BR,1695740123
49,wailua homesteads,22.0669,-159.378,24.44,84,40,5.14,US,1695740123
50,atafu village,-8.5421,-172.5159,28.32,74,87,5.06,TK,1695740123
51,kodiak,57.79,-152.4072,3.73,75,0,2.57,US,1695740123
52,baracoa,20.3467,-74.4958,29.74,77,92,4.64,CU,1695740123
53,lihue,21.9789,-159.3672,24.77,83,40,5.14,US,1695740124
54,yellowknife,62.456,-114.3525,9.12,88,100,8.75,CA,1695739962
55,longyearbyen,78.2186,15.6401,-6.09,79,20,1.54,SJ,1695740124
56,bredasdorp,-34.5322,20.0403,16.16,67,31,2.99,ZA,1695740124
57,castillos,-34.1667,-53.8333,11.88,85,100,5.18,UY,1695740125
58,korla,41.7597,86.1469,17.63,43,99,1.19,CN,1695740125
59,puerto ayora,-0.7393,-90.3518,25.98,94,100,4.47,EC,1695740125
60,aasiaat,68.7098,-52.8699,-0.02,81,87,4.84,GL,1695740126
61,port blair,11.6667,92.75,26.02,89,75,3.09,IN,1695740126
62,hamilton,39.1834,-84.5333,23.66,76,20,4.12,US,1695739959
63,coquimbo,-29.9533,-71.3436,15.85,55,0,3.09,CL,1695740127
64,la passe,45.5549,-0.8967,28.13,54,79,3.54,FR,1695740127
65,shenjiamen,29.9576,122.298,24.96,85,2,3.42,CN,1695740127
66,puerto natales,-51.7236,-72.4875,7.82,68,100,4.15,CL,1695740127
67,lazaro cardenas,17.9583,-102.2,28.21,84,55,2.18,MX,1695740127
68,adamstown,-25.066,-130.1015,21.09,69,84,7.11,PN,1695740128
69,poyarkovo,49.6,128.6833,12.26,93,100,2.87,RU,1695740128
70,sisimiut,66.9395,-53.6735,2.99,64,33,2.62,GL,1695740128
71,sigli,5.3848,95.9609,26.94,77,96,1.76,ID,1695740128
72,iqaluit,63.7506,-68.5145,2.85,93,100,3.09,CA,1695740128
73,tobelo,1.7284,128.0095,25.93,78,98,1.95,ID,1695740129
74,whitecourt,54.1502,-115.6855,4.58,100,75,2.06,CA,1695740129
75,rohtak,28.9,76.5667,31.06,48,5,1.79,IN,1695740129
76,puerto quijarro,-17.7833,-57.7667,42.05,17,12,5.02,BO,1695740129
77,fortuna,40.5982,-124.1573,14.64,97,40,1.54,US,1695740130
78,curuzu cuatia,-29.7917,-58.0546,13.61,95,100,6.28,AR,1695739854
79,la'ie,21.6477,-157.9253,25.98,76,9,3.13,US,1695740130
80,howard springs,-12.497,131.047,26.95,72,49,2.47,AU,1695740131
81,brokopondo,4.75,-55.1667,31.45,53,2,0.62,SR,1695740131
82,avarua,-21.2078,-159.775,21.03,73,100,4.63,CK,1695740131
83,baiti,13.745,-14.7482,34.8,52,82,2.99,SN,1695740131
84,broome,42.2506,-75.833,16.31,83,0,4.92,US,1695740132
85,bikenibeu village,1.3673,173.1241,27.98,83,75,1.03,KI,1695740132
86,jamestown,42.097,-79.2353,15.31,87,100,3.13,US,1695740132
87,mejit,10.2753,170.8646,28.47,80,100,7.38,MH,1695740132
88,wanganui,-39.9333,175.05,9.22,80,100,6.41,NZ,1695740133
89,pianco,-7.1981,-37.9292,35.45,26,70,2.14,BR,1695740133
90,alegrete,-29.7831,-55.7919,15.43,92,100,5.96,BR,1695740133
91,saldanha,-33.0117,17.9442,20.03,78,0,9.17,ZA,1695740133
92,edinburgh of the seven seas,-37.0676,-12.3116,13.34,78,9,10.05,SH,1695740134
93,mili,6.0815,171.735,28.67,78,86,6.33,MH,1695740134
94,al wasitah,29.3378,31.2056,35.94,15,0,5.18,EG,1695740134
95,pallasovka,50.05,46.8833,23.36,34,84,3.61,RU,1695740134
96,margaret river,-33.95,115.0667,11.48,69,0,2.42,AU,1695740135
97,tumaco,1.7986,-78.8156,27.1,80,79,3.99,CO,1695740135
98,thompson,55.7435,-97.8558,12.09,100,40,1.03,CA,1695740080
99,changji,44.0167,87.3167,16.44,59,0,2.0,CN,1695740135
100,hadibu,12.65,54.0333,27.39,81,56,3.14,YE,1695740136
101,college,64.8569,-147.8028,1.56,85,20,2.06,US,1695739639
102,bhag,29.0415,67.8239,35.81,22,0,2.07,PK,1695740136
103,sarayonu,38.262,32.4046,26.79,25,100,3.98,TR,1695740124
104,qaqortoq,60.7167,-46.0333,4.63,48,0,3.22,GL,1695740136
105,fort mcmurray,56.7268,-111.381,13.77,62,0,4.63,CA,1695740137
106,alice springs,-23.7,133.8833,16.75,31,0,1.54,AU,1695740137
107,woodland park,40.8898,-74.1949,15.59,84,100,5.14,US,1695740137
108,delmas,18.5447,-72.3028,31.4,62,20,7.72,HT,1695740137
109,tiksi,71.6872,128.8694,-0.79,72,88,10.1,RU,1695740138
110,la ronge,55.1001,-105.2842,17.14,72,75,5.66,CA,1695740138
111,swakopmund,-22.6833,14.5333,18.88,67,6,7.15,NA,1695740138
112,keflavik,64.0049,-22.5624,11.95,76,75,8.75,IS,1695740138
113,kostomuksha,64.571,30.5767,11.84,90,100,4.97,RU,1695740139
114,port hedland,-20.3167,118.5667,30.03,26,63,5.14,AU,1695739692
115,san luis de la loma,17.2706,-100.8939,29.44,72,19,1.61,MX,1695740139
116,kalamata,37.0389,22.1142,24.87,71,75,1.54,GR,1695740139
117,remire-montjoly,4.9167,-52.2667,33.02,58,0,2.06,GF,1695740139
118,adrar,20.5022,-10.0711,42.22,6,50,4.12,MR,1695740140
119,yichang,30.7144,111.2847,21.62,84,100,0.73,CN,1695740140
120,palmarito tochapan,18.9,-97.6167,17.14,38,39,1.88,MX,1695740140
121,novodvinsk,64.4165,40.8122,12.04,86,100,4.63,RU,1695740141
122,port mathurin,-19.6833,63.4167,23.07,67,6,9.47,MU,1695740120
123,grants,35.1473,-107.8514,10.13,46,0,1.54,US,1695740141
124,naze,28.3667,129.4833,24.51,83,23,5.77,JP,1695740141
125,kattivakkam,13.2167,80.3167,30.05,82,82,5.61,IN,1695740142
126,dunedin,-45.8742,170.5036,7.11,76,52,0.73,NZ,1695740142
127,arraial do cabo,-22.9661,-42.0278,26.98,78,75,8.75,BR,1695739953
128,saint-philippe,-21.3585,55.7679,23.77,75,9,5.82,RE,1695740142
129,west island,-12.1568,96.8225,25.99,78,100,6.17,CC,1695740142
130,haiku-pauwela,20.9219,-156.3051,23.91,78,75,5.14,US,1695740143
131,okha,53.5739,142.9478,6.17,84,100,3.76,RU,1695740143
132,afaahiti,-17.75,-149.2833,22.93,94,100,8.76,PF,1695740143
133,utrik,11.2278,169.8474,28.78,73,100,7.36,MH,1695740144
134,pisco,-13.7,-76.2167,21.03,64,20,1.54,PE,1695740144
135,nova sintra,14.8667,-24.7167,23.96,78,16,6.57,CV,1695740144
136,punta arenas,-53.15,-70.9167,9.01,70,75,9.77,CL,1695740144
137,san pedro,14.35,121.0167,25.18,90,100,1.03,PH,1695740144
138,ola,59.5833,151.2833,4.06,77,94,1.22,RU,1695740145
139,villa gesell,-37.2639,-56.973,9.27,70,100,2.12,AR,1695739999
140,kurchatov,51.6601,35.6521,21.23,50,8,2.96,RU,1695740145
141,sumbe,-11.2061,13.8437,23.8,80,98,3.79,AO,1695740145
142,khowy,38.5503,44.9521,23.29,38,20,5.14,IR,1695740146
143,taroa,8.7058,171.2275,28.6,77,100,7.01,MH,1695740146
144,hohhot,40.8106,111.6522,14.95,54,0,3.0,CN,1695740146
145,dawson creek,55.7666,-120.2362,2.8,100,75,1.54,CA,1695740146
146,iskateley,67.6803,53.1512,7.4,97,100,4.37,RU,1695740147
147,tolanaro,-25.0319,46.9987,26.04,69,20,12.86,MG,1695740147
148,esbjerg,55.4667,8.45,19.38,70,75,3.6,DK,1695740147
149,san antonio de pale,-1.4014,5.6325,24.91,85,43,6.28,GQ,1695740147
150,lata,40.1629,-8.3327,28.05,46,4,3.06,PT,1695740148
151,alzamay,55.5562,98.6644,5.27,92,100,3.24,RU,1695740148
152,marat,25.0701,45.4615,37.8,9,93,4.69,SA,1695740148
153,volksrust,-27.3654,29.8818,20.57,20,3,2.86,ZA,1695740012
154,badger,64.8,-147.5333,1.66,85,20,2.06,US,1695740148
155,nadi,-17.8,177.4167,23.0,94,75,2.57,FJ,1695740149
156,bull savanna,17.8868,-77.5902,30.58,62,85,4.39,JM,1695740149
157,port elizabeth,-33.918,25.5701,17.28,71,75,6.69,ZA,1695740149
158,sterling,39.0062,-77.4286,15.16,90,100,4.63,US,1695740109
159,newman,37.3138,-121.0208,15.58,75,0,0.89,US,1695740149
160,nevers,46.9167,3.3333,26.32,39,0,2.57,FR,1695740150
161,pawni,20.7833,79.6333,26.49,80,99,1.24,IN,1695740150
162,coracora,-15.0333,-73.7833,18.4,16,94,2.99,PE,1695740150
163,scone,56.4194,-3.4051,16.42,85,87,2.68,GB,1695740150
164,hithadhoo,-0.6,73.0833,28.18,75,13,5.64,MV,1695740151
165,sitka,57.0531,-135.33,13.94,58,100,4.63,US,1695740151
166,colonia,50.9333,6.95,26.35,51,0,3.09,DE,1695739922
167,hami,42.8,93.45,14.5,31,0,2.4,CN,1695740151
168,sanghar,26.0466,68.9481,33.57,32,5,3.29,PK,1695740151
169,sinabang,2.4803,96.3801,26.32,77,61,2.57,ID,1695740152
170,shiggaon,15.0,75.2333,23.28,93,96,4.13,IN,1695740152
171,teknaf,20.8624,92.3058,27.51,87,82,1.95,BD,1695740152
172,beloyarskiy,63.7119,66.6722,7.78,90,72,8.05,RU,1695740152
173,princeton,25.5384,-80.4089,31.12,83,0,3.6,US,1695740153
174,georgetown,5.4112,100.3354,27.23,89,20,1.54,MY,1695740153
175,lakatoro,-16.0999,167.4164,22.36,77,100,6.22,VU,1695740153
176,borovskoy,53.8,64.15,14.33,65,71,4.42,KZ,1695740154
177,tazacorte,28.629,-17.9293,27.54,90,20,3.6,ES,1695740154
178,mata-utu,-13.2816,-176.1745,27.21,81,95,7.17,WF,1695740154
179,socorro,31.6546,-106.3033,25.92,55,75,3.09,US,1695740154
180,new plymouth,-39.0667,174.0833,11.0,90,100,2.36,NZ,1695740155
181,olonkinbyen,70.9221,-8.7187,3.86,82,100,9.69,SJ,1695740155
182,stanley,54.868,-1.6985,17.93,79,75,5.66,GB,1695740155
183,fort st. john,56.2499,-120.8529,4.94,100,100,2.57,CA,1695740155
184,cabo san lucas,22.8909,-109.9124,30.98,85,9,4.47,MX,1695739690
185,banda aceh,5.5577,95.3222,26.82,81,100,4.92,ID,1695740156
186,luganville,-15.5333,167.1667,23.45,77,99,5.25,VU,1695740156
187,nemuro,43.3236,145.575,16.71,89,74,2.44,JP,1695740156
188,kavieng,-2.5744,150.7967,26.85,85,100,6.93,PG,1695740156
189,muisne,0.6,-80.0333,26.36,77,98,4.08,EC,1695740157
190,yanam,16.7333,82.2167,26.24,92,9,1.49,IN,1695740157
191,barah,13.7,30.3667,36.47,29,25,2.07,SD,1695740157
192,poronaysk,49.2167,143.1167,8.89,92,89,1.66,RU,1695740157
193,namibe,-15.1961,12.1522,20.0,74,13,5.12,AO,1695740064
194,nar'yan-mar,67.6713,53.087,7.48,98,100,4.47,RU,1695740158
195,khorixas,-20.3667,14.9667,31.17,6,0,4.2,NA,1695740158
196,lompoc,34.6391,-120.4579,17.66,56,0,8.94,US,1695740158
197,serra talhada,-7.9919,-38.2983,35.53,24,100,3.42,BR,1695740159
198,new ulm,44.3125,-94.4605,16.98,92,100,3.09,US,1695740159
199,hammerfest,70.6634,23.6821,13.25,67,75,4.63,NO,1695740159
200,south suffolk,36.7171,-76.5902,21.05,90,100,1.79,US,1695740159
201,lautoka,-17.6167,177.4667,22.92,94,75,2.57,FJ,1695740160
202,leua,48.2156,18.6071,26.94,39,10,3.59,SK,1695740160
203,happy valley-goose bay,53.3168,-60.3315,9.17,76,75,3.09,CA,1695740160
204,ormara,25.2088,64.6357,26.81,78,9,1.98,PK,1695740161
205,bebedja,8.6761,16.566,30.72,66,66,0.98,TD,1695740161
206,mugia,43.1041,-9.2179,24.39,78,98,2.91,ES,1695740161
207,geraldton,-28.7667,114.6,13.23,94,0,3.6,AU,1695740161
208,torghay,49.6339,63.4981,21.79,44,69,1.62,KZ,1695740162
209,juli,-16.2167,-69.45,13.36,31,2,2.46,PE,1695740162
210,gazojak,41.1875,61.4036,23.43,21,0,3.13,TM,1695740162
211,constantia,44.1833,28.65,25.39,61,21,10.54,RO,1695740163
212,shingu,33.7333,135.9833,21.86,86,4,1.9,JP,1695740163
213,kingscliff,-28.2667,153.5667,17.89,72,4,2.57,AU,1695740163
214,nadym,65.5333,72.5167,4.18,76,5,3.84,RU,1695740163
215,richards bay,-28.783,32.0377,21.58,59,13,6.42,ZA,1695740163
216,fale old settlement,-9.3852,-171.2468,27.27,81,78,4.94,TK,1695740164
217,itoman,26.1247,127.6694,28.01,86,20,4.63,JP,1695740164
218,kudahuvadhoo,2.6708,72.8944,27.84,78,64,3.81,MV,1695740164
219,port saint john's,-31.6229,29.5448,17.78,65,99,10.23,ZA,1695740164
220,choibalsan,48.0667,114.5,7.45,45,81,10.14,MN,1695740165
221,port lincoln,-34.7333,135.8667,12.68,79,33,5.39,AU,1695740165
222,berezovyy,51.6667,135.7,10.86,87,100,0.96,RU,1695740165
223,pingliang,35.5392,106.6861,15.26,79,74,0.02,CN,1695740165
224,tatarsk,55.219,75.9828,11.99,75,83,6.37,RU,1695740166
225,kyzyl-mazhalyk,51.1333,90.6,3.77,47,8,0.94,RU,1695740166
226,airuk,7.2772,168.8203,28.06,81,100,6.96,MH,1695740166
227,dudinka,69.4058,86.1778,2.57,99,100,3.74,RU,1695740167
228,magadan,59.5667,150.8,3.97,73,90,1.62,RU,1695740167
229,kurumkan,54.3,110.3,10.24,67,58,0.38,RU,1695740167
230,giddarbaha,30.2,74.6667,29.61,40,0,2.7,IN,1695740167
231,st. john's,47.5649,-52.7093,14.43,65,0,2.68,CA,1695740167
232,hasaki,35.7333,140.8333,22.38,83,42,1.64,JP,1695740168
233,ta`u,-14.2336,-169.5144,26.09,77,48,9.34,AS,1695740168
234,cockburn town,21.4612,-71.1419,30.98,66,40,3.09,TC,1695740168
235,lamu,-2.2717,40.902,28.12,83,47,5.89,KE,1695740065
236,pailon,-17.65,-62.75,34.82,23,6,9.22,BO,1695740169
237,udomlya,57.8794,34.9925,12.02,68,100,1.89,RU,1695740169
238,inyonga,-6.7167,32.0667,33.06,19,47,2.7,TZ,1695740169
239,yamada,39.4667,141.95,19.73,86,100,1.55,JP,1695740169
240,fort bragg,35.139,-79.006,22.68,82,100,4.12,US,1695740049
241,tucupita,9.0622,-62.051,33.81,49,100,1.83,VE,1695740170
242,lagos,6.5833,3.75,29.86,68,58,3.57,NG,1695739873
243,nuuk,64.1835,-51.7216,4.34,65,20,4.63,GL,1695740170
244,jackson,42.4165,-122.8345,12.93,95,100,1.54,US,1695740079
245,malaga,36.7202,-4.4203,25.94,66,20,4.63,ES,1695740114
246,al qusayr,34.5091,36.5798,26.91,49,0,4.15,SY,1695740171
247,kristiansund,63.1115,7.732,18.03,59,0,3.6,NO,1695740171
248,beau vallon,-20.4189,57.6953,24.13,69,40,7.2,MU,1695740171
249,gizo,-8.103,156.8419,26.86,84,100,7.61,SB,1695740171
250,linxia chengguanzhen,35.6003,103.2064,11.57,95,100,1.98,CN,1695740171
251,nabire,-3.3667,135.4833,24.58,93,100,1.76,ID,1695740172
252,plouzane,48.3833,-4.6167,19.18,82,75,6.69,FR,1695740172
253,sona,45.4388,10.8255,28.1,48,5,3.6,IT,1695740172
254,grand baie,-20.0182,57.5802,24.26,65,1,2.24,MU,1695740172
255,shuangcheng,45.35,126.2833,16.82,87,0,5.31,CN,1695740172
256,teploye,53.6202,37.5903,15.3,52,75,2.88,RU,1695740173
257,brisas de zicatela,15.8369,-97.0419,29.2,64,0,0.59,MX,1695740173
258,sao gabriel da cachoeira,-0.1303,-67.0892,29.89,74,0,2.06,BR,1695740173
259,lagoa,39.05,-27.9833,21.96,82,99,15.26,PT,1695740174
260,codrington,-38.2667,141.9667,9.26,81,100,3.43,AU,1695740174
261,puerto deseado,-47.7503,-65.8938,10.81,42,35,5.57,AR,1695740174
262,vilhena,-12.7406,-60.1458,31.12,55,20,7.2,BR,1695740174
263,ampanihy,-24.7,44.75,26.4,51,31,5.79,MG,1695740174
264,mogok,22.9167,96.5,19.81,95,70,0.7,MM,1695740175
265,coahuayana de hidalgo,18.7,-103.6583,29.42,81,18,0.76,MX,1695740175
266,saudarkrokur,65.7461,-19.6394,7.4,83,100,3.94,IS,1695740175
267,palmer,42.1584,-72.3287,14.92,71,75,6.69,US,1695740175
268,el progreso,15.4,-87.8,30.9,78,20,1.03,HN,1695740176
269,tamandare,-8.7597,-35.1047,28.51,59,98,4.85,BR,1695740000
270,sarangani,5.4033,125.4636,27.71,77,99,6.59,PH,1695740176
271,port alfred,-33.5906,26.891,17.88,73,97,4.02,ZA,1695740176
272,susuman,62.7833,148.1667,-4.38,86,54,0.86,RU,1695740177
273,khenifra,32.9333,-5.6667,32.14,26,0,2.88,MA,1695740177
274,boquira,-12.8231,-42.7306,38.64,17,0,2.15,BR,1695740177
275,anadyr,64.75,177.4833,-2.72,93,0,2.0,RU,1695740177
276,okondja,-0.6549,13.6753,31.03,56,59,1.73,GA,1695740178
277,fortaleza,-3.7227,-38.5247,30.07,62,75,8.23,BR,1695740178
278,divino das laranjeiras,-18.7778,-41.4797,36.21,28,94,4.31,BR,1695740178
279,belyy yar,53.6039,91.3903,5.94,81,75,0.0,RU,1695740178
280,kapa'a,22.0752,-159.319,25.18,83,40,5.14,US,1695740179
281,vadso,70.0744,29.7487,9.49,87,100,3.6,NO,1695740179
282,tevriz,57.509,72.4042,10.7,82,90,3.07,RU,1695740179
283,chonchi,-42.6128,-73.8092,9.51,66,94,2.25,CL,1695740179
284,east london,-33.0153,27.9116,15.52,82,75,11.32,ZA,1695740180
285,el calafate,-50.3408,-72.2768,4.78,68,100,0.47,AR,1695740180
286,minas de marcona,-15.2119,-75.1103,15.81,67,65,7.37,PE,1695740180
287,soto la marina,23.7667,-98.2167,29.92,58,14,0.5,MX,1695740180
288,torbat-e jam,35.244,60.6225,19.13,30,0,4.57,IR,1695740180
289,tangalle,6.024,80.7911,26.09,83,100,5.06,LK,1695740181
290,staritsa,56.5075,34.9354,12.47,72,99,1.61,RU,1695740181
291,viedma,-40.8135,-62.9967,15.32,54,46,2.1,AR,1695740181
292,bhimunipatnam,17.8833,83.4333,28.73,82,66,2.2,IN,1695740181
293,weno,7.4515,151.8468,25.97,94,100,1.54,FM,1695740182
294,karkkila,60.5342,24.2098,17.03,76,100,3.73,FI,1695740182
295,boston,42.3584,-71.0598,15.53,79,100,9.77,US,1695739351
296,nizhniy kuranakh,58.8353,125.4869,4.79,89,46,1.05,RU,1695740182
297,gaitania,3.0906,-75.6723,25.11,47,79,2.68,CO,1695740183
298,priargunsk,50.3691,119.1012,9.26,85,95,2.13,RU,1695740183
299,papatowai,-46.5619,169.4708,4.07,90,32,2.23,NZ,1695740183
300,khandyga,62.6667,135.6,0.83,89,66,1.04,RU,1695740183
301,sabang,5.8933,95.3214,27.91,78,100,6.87,ID,1695740183
302,harper,4.375,-7.7169,26.4,82,54,4.28,LR,1695740184
303,khodzha-maston,38.7446,68.627,15.68,33,0,2.0,TJ,1695740184
304,horodnytsya,50.807,27.3168,23.79,52,12,2.6,UA,1695740184
305,el granada,37.5027,-122.4694,18.9,93,100,4.12,US,1695740184
306,zeya,53.75,127.2667,9.1,95,100,1.38,RU,1695740185
307,westport,41.1415,-73.3579,16.46,88,100,7.2,US,1695739907
308,hemsby,52.6971,1.6918,23.37,75,52,7.57,GB,1695740185
309,nantucket,41.2835,-70.0995,16.16,86,100,8.23,US,1695740150
310,sechura,-5.5569,-80.8222,24.35,60,7,4.16,PE,1695740185
311,kenai,60.5544,-151.2583,-0.97,100,0,1.54,US,1695740186
312,gumdag,39.2061,54.5906,24.45,22,100,3.33,TM,1695740186
313,bezhetsk,57.7851,36.6965,12.1,70,100,2.56,RU,1695740186
314,kavaratti,10.5669,72.642,28.56,75,87,5.91,IN,1695740187
315,portland,45.5234,-122.6762,13.99,95,100,4.02,US,1695739410
316,ripky,51.801,31.0838,22.28,39,0,2.94,UA,1695740187
317,sur,22.5667,59.5289,28.85,59,100,0.94,OM,1695740187
318,kendari,-3.945,122.4989,22.17,84,30,0.86,ID,1695740187
319,wau,7.7029,27.9953,28.37,63,87,1.89,SS,1695740188
320,tashtagol,52.7657,87.8894,1.83,95,13,1.44,RU,1695740188
321,callao,-12.0667,-77.15,19.84,82,100,2.57,PE,1695739967
322,saint-pol-de-leon,48.6833,-3.9833,22.11,73,100,5.14,FR,1695740188
323,kurchum,48.5722,83.6542,8.46,56,4,3.36,KZ,1695740189
324,shache,38.4167,77.2406,19.2,18,55,1.64,CN,1695740189
325,sindgi,16.9167,76.2333,26.82,70,70,3.14,IN,1695740189
326,katsuura,35.1333,140.3,23.76,88,27,1.5,JP,1695740190
327,akrehamn,59.2667,5.1833,19.44,67,40,7.2,NO,1695740190
328,grantsville,40.5999,-112.4644,22.27,27,0,0.0,US,1695740190
329,opuwo,-18.0607,13.84,32.73,3,0,1.47,NA,1695740191
330,camiri,-20.05,-63.5167,29.88,54,0,0.0,BO,1695740191
331,bridgewater,44.3835,-64.5155,15.62,66,0,4.63,CA,1695740175
332,aguilar de campoo,42.7945,-4.2589,25.1,27,1,2.86,ES,1695740191
333,pacific grove,36.6177,-121.9166,18.06,81,100,1.34,US,1695739946
334,broken hill,-31.95,141.4333,18.21,40,22,3.47,AU,1695740192
335,zambezi,-13.5432,23.1047,30.17,32,93,3.42,ZM,1695740192
336,arauca,7.0847,-70.7591,30.98,70,0,1.03,CO,1695740192
337,nouadhibou,20.931,-17.0347,25.11,65,100,8.12,MR,1695740123
338,lerwick,60.1545,-1.1494,14.0,88,100,12.26,GB,1695740193
339,walterboro,32.9052,-80.6668,27.81,69,0,1.54,US,1695739936
340,malanje,-9.5402,16.341,29.39,41,64,2.93,AO,1695740193
341,mar del plata,-38.0023,-57.5575,13.01,71,0,1.54,AR,1695740042
342,palikir - national government center,6.9248,158.1611,25.41,94,100,1.54,FM,1695740193
343,barentu,15.1139,37.5928,29.95,46,97,4.83,ER,1695740193
344,techiman,7.5862,-1.9414,27.88,76,59,1.96,GH,1695740194
345,amungan,15.3652,119.9582,26.83,82,10,1.47,PH,1695740194
346,arawa,-6.2132,155.5367,24.13,89,100,1.63,PG,1695740194
347,chipinge,-20.1883,32.6236,25.13,45,80,3.3,ZW,1695740194
348,kyosai,34.8503,128.5886,22.98,85,4,4.2,KR,1695740195
349,constitucion,-35.3333,-72.4167,13.45,60,3,6.09,CL,1695740195
350,poshekhon'ye,58.4993,39.1353,14.56,77,100,2.43,RU,1695740195
351,nago,26.5881,127.9761,27.47,82,2,4.41,JP,1695740195
352,carnarvon,-24.8667,113.6333,21.26,71,0,6.67,AU,1695740196
353,franceville,-1.6333,13.5836,33.25,52,75,1.06,GA,1695740196
354,trat,12.5,102.5,23.23,95,95,0.99,TH,1695740196
355,hood river,45.7054,-121.5215,13.83,98,100,0.89,US,1695740196
356,alofi,-19.0595,-169.9187,21.94,83,100,1.54,NU,1695740196
357,berdigestyakh,62.0989,126.6992,4.98,91,3,1.63,RU,1695740197
358,baniachang,24.5167,91.3667,28.43,79,37,2.21,BD,1695740197
359,tanumah,27.1,44.1333,35.61,8,0,5.45,SA,1695740197
360,recani,31.2846,-4.2688,36.2,11,0,3.07,MA,1695740197
361,udachny,66.4167,112.4,1.36,92,100,6.75,RU,1695740198
362,al hamul,31.3115,31.1477,29.14,48,0,5.06,EG,1695740198
363,belomorsk,64.5232,34.7668,13.22,82,98,4.89,RU,1695740198
364,baykal'sk,51.5058,104.1469,5.53,92,100,2.01,RU,1695740198
365,kharp,66.8014,65.8081,5.24,92,100,2.63,RU,1695740199
366,zouerate,22.7187,-12.4521,38.27,14,100,7.79,MR,1695740199
367,dwarka,22.2394,68.9678,26.98,73,9,3.4,IN,1695740199
368,walvis bay,-22.9575,14.5053,18.94,47,1,12.71,NA,1695740199
369,vilyuchinsk,52.9306,158.4028,2.15,81,1,4.22,RU,1695740200
370,kario ghanwar,24.8082,68.6045,30.8,50,23,5.37,PK,1695740200
371,ayas,40.0193,32.3322,28.12,25,80,1.45,TR,1695740200
372,komotini,41.1228,25.3964,29.47,44,100,2.68,GR,1695740201
373,sungai penuh,-2.0833,101.3833,18.56,96,75,0.55,ID,1695740201
374,pathein,16.7833,94.7333,26.01,91,84,2.47,MM,1695740201
375,rehoboth,-23.3167,17.0833,21.83,20,0,7.42,NA,1695740201
376,northam,51.0333,-4.2167,18.55,84,100,6.17,GB,1695740201
377,singrauli,24.1997,82.6753,25.4,74,75,1.09,IN,1695740202
378,minot,48.2325,-101.2963,13.12,94,100,2.06,US,1695740202
379,zhanaozen,43.3,52.8,22.39,25,0,3.67,KZ,1695740202
380,nova vicosa,-17.8919,-39.3719,30.08,58,54,6.91,BR,1695740202
381,letlhakeng,-24.0944,25.0298,24.69,20,0,5.0,BW,1695740202
382,mlimba,-8.8,35.8167,33.75,29,21,2.44,TZ,1695740203
383,rabak,13.1809,32.74,33.35,40,99,3.0,SD,1695740203
384,magdagachi,53.45,125.8,8.25,98,100,1.62,RU,1695740203
385,jaffna,9.6685,80.0074,27.88,84,100,8.26,LK,1695740203
386,midoun,33.8081,10.9923,27.92,50,0,3.36,TN,1695740204
387,den helder,52.9599,4.7593,22.23,66,100,5.81,NL,1695740204
388,saryaghash,41.45,69.1667,24.96,21,5,3.41,KZ,1695740204
389,pundri,29.75,76.55,28.25,53,0,3.15,IN,1695740204
390,manturovo,58.3353,44.7619,11.53,72,92,2.23,RU,1695740205
391,uturoa,-16.7333,-151.4333,23.9,84,100,6.84,PF,1695740205
392,al bayda',32.7627,21.7551,20.87,61,11,5.62,LY,1695740205
393,pariaman,-0.619,100.12,27.03,84,94,2.15,ID,1695740205
394,gdov,58.7406,27.8122,14.67,68,32,3.12,RU,1695740206
395,santana,-0.0583,-51.1817,32.1,62,20,4.63,BR,1695740206
396,santa terezinha,-29.9002,-50.0904,17.95,96,100,7.92,BR,1695740206
397,ray,23.6833,85.05,25.43,84,100,0.45,IN,1695740024
398,rio grande,-32.035,-52.0986,15.06,95,100,9.11,BR,1695740207
399,gadzhiyevo,69.2551,33.3362,7.85,95,100,3.06,RU,1695740207
400,porto recanati,43.4365,13.6613,24.45,65,1,5.62,IT,1695740207
401,lewistown,40.5992,-77.5714,14.37,100,100,2.37,US,1695740207
402,gargalianoi,37.0667,21.6333,23.34,65,100,1.18,GR,1695740207
403,gurupi,-11.7292,-49.0686,40.97,19,3,2.36,BR,1695740086
404,mount vernon,40.9126,-73.8371,16.17,87,100,7.15,US,1695739916
405,roma,43.2128,-75.4557,16.09,75,100,2.24,US,1695740068
406,cole harbour,44.6724,-63.4751,15.55,60,40,5.14,CA,1695740045
407,morehead city,34.7229,-76.726,25.02,82,40,5.14,US,1695740208
408,maych'ew,12.7875,39.5422,18.56,54,69,3.51,ET,1695740209
409,kill devil hills,36.0307,-75.676,24.0,77,40,3.09,US,1695740209
410,rongelap,11.1635,166.8941,28.7,74,100,6.87,MH,1695740209
411,edson,53.5835,-116.4356,2.08,93,0,2.57,CA,1695740209
412,puerto baquerizo moreno,-0.9,-89.6,24.55,83,75,4.12,EC,1695740209
413,ketchikan,55.3422,-131.6461,12.99,82,100,3.6,US,1695740210
414,puerto armuelles,8.2833,-82.8667,27.99,73,32,0.45,PA,1695740210
415,vernon,50.2581,-119.2691,13.12,93,72,1.79,CA,1695740210
416,malpe,13.35,74.7167,27.61,87,95,1.32,IN,1695740210
417,luang namtha,20.9497,101.4011,23.88,74,100,0.57,LA,1695740210
418,charlottetown,46.2352,-63.1267,16.42,70,40,4.63,CA,1695739809
419,san juan de miraflores,-12.1629,-76.9635,18.98,84,51,3.02,PE,1695740211
420,xiaoweizhai,26.1903,107.5125,20.77,95,29,0.89,CN,1695740211
421,tual,-5.6667,132.75,25.7,87,52,8.94,ID,1695740211
422,gunjur,13.2019,-16.7339,32.04,70,75,0.0,GM,1695740211
423,daokou,35.5639,114.5058,16.88,95,74,2.73,CN,1695740212
424,dedovichi,57.5517,29.9502,14.48,58,100,1.62,RU,1695740212
425,hermansverk,61.1846,6.8502,19.25,51,40,1.03,NO,1695740212
426,karratha,-20.7377,116.8463,27.44,33,28,4.53,AU,1695740213
427,witu,-2.3889,40.4382,28.09,76,96,5.52,KE,1695740213
428,brookings,44.3114,-96.7984,15.62,98,100,2.57,US,1695740067
429,isna,25.2934,32.554,40.01,9,5,4.94,EG,1695740213
430,gebeit,21.0667,36.3167,37.52,15,56,5.64,SD,1695740213
431,wanning,18.8003,110.3967,26.33,91,100,2.4,CN,1695740214
432,crane,31.3974,-102.3501,24.67,63,15,3.17,US,1695740214
433,yeppoon,-23.1333,150.7333,18.74,72,0,3.67,AU,1695740214
434,ceerigaabo,10.6162,47.368,21.97,56,85,3.0,SO,1695740214
435,dossor,47.5272,52.9811,24.38,32,21,2.44,KZ,1695740214
436,labrador city,52.9463,-66.9114,10.95,62,20,2.57,CA,1695740215
437,muli,2.9167,73.5667,28.03,78,68,4.36,MV,1695740215
438,mariehamn,60.0973,19.9348,16.01,88,0,5.14,AX,1695740215
439,luzilandia,-3.4578,-42.3703,39.94,27,3,1.67,BR,1695740215
440,fabens,31.5023,-106.1586,25.08,55,100,5.54,US,1695740215
441,tuapse,44.1125,39.0742,24.16,50,0,4.3,RU,1695740216
442,lillehammer,61.1146,10.4674,15.57,68,0,2.96,NO,1695740216
443,shimoda,34.6667,138.95,22.84,82,15,2.24,JP,1695740216
444,port-vila,-17.7338,168.3219,21.12,71,72,6.64,VU,1695740153
445,vorkuta,67.5,64.0,3.13,80,100,1.87,RU,1695740216
446,waddan,29.1614,16.139,29.4,25,0,5.04,LY,1695740217
447,barmer,25.75,71.3833,34.41,38,23,1.79,IN,1695740217
448,saskatoon,52.1168,-106.6345,15.99,72,75,7.2,CA,1695740083
449,teguise,29.0605,-13.564,26.12,51,40,7.72,ES,1695740191
450,kerikeri,-35.2268,173.9474,12.17,83,99,0.45,NZ,1695740218
451,serchhip,23.3,92.8333,20.98,94,42,0.18,IN,1695740218
452,galle,6.0367,80.217,26.48,87,100,4.27,LK,1695740218
453,velez rubio,37.6484,-2.0769,27.6,43,2,3.2,ES,1695740218
454,brechin,56.7299,-2.6573,15.84,89,100,3.59,GB,1695740218
455,puerto francisco de orellana,-0.4667,-76.9667,27.03,78,40,1.03,EC,1695740219
456,al quwayrah,29.8004,35.3116,34.0,22,0,3.38,JO,1695740219
457,mokhsogollokh,61.4681,128.9203,3.54,83,6,0.95,RU,1695740219
458,vila franca do campo,37.7167,-25.4333,23.23,82,97,8.69,PT,1695740219
459,mersing,2.4312,103.8405,25.95,89,20,2.06,MY,1695740220
460,aral,40.5156,81.2636,20.97,25,48,2.89,CN,1695740220
461,leh,34.1667,77.5833,11.65,17,29,2.53,IN,1695740220
462,mournies,35.4764,24.0092,24.22,78,40,2.57,GR,1695740220
463,laojunmiao,39.8333,97.7333,10.75,42,100,0.6,CN,1695740221
464,hotan,37.0997,79.9269,19.69,16,33,2.03,CN,1695740221
465,karatuzskoye,53.6072,92.8667,2.61,90,88,1.13,RU,1695740221
466,zhalantun,48.0,122.7167,12.23,80,100,2.0,CN,1695740222
467,patterson,37.4716,-121.1297,18.92,75,0,1.93,US,1695740222
468,lorengau,-2.0226,147.2712,24.97,92,100,2.02,PG,1695740222
469,ravar,31.2656,56.8055,24.39,10,0,1.07,IR,1695740223
470,xilin hot,43.9667,116.0333,10.47,25,2,4.65,CN,1695740223
471,carolina beach,34.0352,-77.8936,26.03,86,5,0.89,US,1695740201
472,sharanga,57.1775,46.5396,11.46,76,100,2.24,RU,1695740223
473,wabag,-5.4781,143.7021,13.63,99,100,0.78,PG,1695740224
474,tralee,52.2704,-9.7026,15.14,82,40,3.09,IE,1695740091
475,qamdo,31.1667,97.2333,5.1,65,28,1.18,CN,1695740224
476,makary,12.5717,14.4666,36.38,25,18,3.92,CM,1695740225
477,yaren,-0.5472,166.916,28.91,72,55,4.96,NR,1695740225
478,deqen,29.9618,90.7188,9.49,66,3,0.16,CN,1695740225
479,kasba tadla,32.5977,-6.2684,31.06,25,0,1.65,MA,1695740226
480,okhotsk,59.3833,143.3,5.0,62,87,2.94,RU,1695740226
481,baglung,28.2719,83.5898,20.01,92,5,1.54,NP,1695740226
482,grenada,37.1882,-3.6067,31.62,27,0,2.57,ES,1695740226
483,luderitz,-26.6481,15.1594,23.64,40,0,12.41,NA,1695740227
484,el tigre,8.8875,-64.2454,32.48,48,94,2.71,VE,1695740227
485,polyarnyy,69.1989,33.4478,8.07,94,100,3.07,RU,1695740227
486,freetown,8.484,-13.2299,27.84,78,40,5.14,SL,1695740228
487,arno,60.1167,18.6333,15.99,69,75,3.19,SE,1695740228
488,ponta delgada,37.7333,-25.6667,23.4,78,20,9.77,PT,1695740228
489,da nang,16.0678,108.2208,27.99,78,40,1.54,VN,1695740228
490,yambio,4.5721,28.3955,26.26,75,89,1.35,SS,1695740229
491,chulym,55.0997,80.9572,4.93,67,23,3.17,RU,1695740229
492,zilair,52.2332,57.4392,12.35,80,5,2.53,RU,1695740229
493,vina del mar,-33.0246,-71.5518,16.71,57,0,7.72,CL,1695740229
494,tadjourah,12.0,42.5,35.32,30,60,2.94,DJ,1695740229
495,island harbour,50.724,-1.2758,21.2,81,72,2.68,GB,1695740230
496,ulladulla,-35.35,150.4667,15.43,94,100,1.53,AU,1695739704
497,khvoynaya,58.9,34.5333,11.68,72,100,2.21,RU,1695740230
498,buckeye,33.3703,-112.5838,29.35,24,0,0.0,US,1695740230
499,ulsteinvik,62.3432,5.8487,19.5,52,2,6.26,NO,1695740230
500,serov,59.6033,60.5787,9.82,67,76,2.25,RU,1695740231
501,quelimane,-17.8786,36.8883,27.97,65,0,10.29,MZ,1695740120
502,guarapari,-20.6667,-40.4975,26.05,75,80,3.45,BR,1695740019
503,severomorsk,69.0689,33.4162,11.22,95,100,2.34,RU,1695740231
504,lulea,65.5842,22.1547,17.04,55,3,3.6,SE,1695740232
505,ban pong,13.8163,99.8774,24.94,95,100,1.54,TH,1695740232
506,kamaishi,39.2667,141.8833,20.44,86,100,1.77,JP,1695740232
507,klaksvik,62.2266,-6.589,11.51,92,100,7.15,FO,1695740232
508,baki,-7.6128,110.7839,23.99,77,32,4.24,ID,1695740232
509,daru,-9.0763,143.2092,24.66,82,96,7.08,PG,1695740233
510,sidrolandia,-20.9319,-54.9614,38.94,19,2,5.67,BR,1695740233
511,woodstock,43.1334,-80.7497,16.63,84,100,0.45,CA,1695740233
512,isangel,-19.55,169.2667,20.2,69,82,5.66,VU,1695740233
513,tucuma,-0.1833,-50.05,34.0,47,4,2.38,BR,1695739985
514,anloga,5.7947,0.8973,27.95,74,48,5.68,GH,1695740234
515,natal,-5.795,-35.2094,30.36,62,75,7.2,BR,1695740210
516,warmbad,-28.45,18.7333,22.92,15,0,7.04,NA,1695740234
517,malvan,16.0667,73.4667,26.58,85,67,3.64,IN,1695740234
518,puerto carreno,6.189,-67.4859,29.99,74,0,2.06,CO,1695740235
519,yar,58.249,52.1026,12.05,69,100,2.21,RU,1695740235
520,hargeysa,9.56,44.065,25.04,51,87,2.54,SO,1695740235
521,visby,57.6409,18.296,18.79,82,0,1.03,SE,1695740235
522,bardai,11.65,7.2333,33.74,37,85,2.64,NG,1695740236
523,votuporanga,-20.4228,-49.9728,39.53,21,18,3.08,BR,1695740236
524,egilsstadir,65.2653,-14.3948,6.95,100,100,7.2,IS,1695740236
525,rameswaram,9.2833,79.3,27.93,84,100,9.21,IN,1695740236
526,lubang,13.8584,120.124,28.52,77,13,3.45,PH,1695740236
527,sabha,27.0377,14.4283,32.33,21,0,4.54,LY,1695740237
528,seven pagodas,12.6264,80.1722,30.03,77,26,5.99,IN,1695740237
529,inari,68.906,27.0288,14.11,85,77,4.69,FI,1695740237
530,port augusta,-32.5,137.7667,15.24,73,100,5.24,AU,1695740238
531,vrangel',42.7297,133.0839,16.66,91,97,2.43,RU,1695740238
532,inverell,-29.7833,151.1167,9.26,68,2,1.81,AU,1695740238
533,shalqar,47.8333,59.6,21.54,40,15,2.85,KZ,1695740238
534,scarborough,54.2797,-0.4044,19.32,78,19,2.68,GB,1695740079
535,firuzabad,28.8438,52.5707,26.7,32,3,2.18,IR,1695740239
536,azemmour,33.2895,-8.3425,24.95,67,39,6.06,MA,1695740239
537,ballina,-28.8667,153.5667,15.58,84,6,3.41,AU,1695740239
538,ust'-kulom,61.6864,53.6902,11.76,75,100,3.11,RU,1695740239
539,tinghir,31.5157,-5.5343,32.05,8,0,1.34,MA,1695740122
540,sola,-13.8833,167.55,25.33,76,99,10.71,VU,1695740240
541,queenstown,-31.8976,26.8753,9.68,70,98,5.31,ZA,1695740240
542,krasnokholmskiy,55.9873,55.0466,15.13,58,64,2.16,RU,1695740240
543,aurora,39.7294,-104.8319,21.04,44,0,3.09,US,1695739546
544,achacachi,-16.05,-68.6833,13.65,40,2,3.37,BO,1695740241
545,hailey,43.5196,-114.3153,16.05,65,0,5.66,US,1695740224
546,douarnenez,48.0954,-4.329,20.45,77,75,5.14,FR,1695740241
547,nanga eboko,4.6833,12.3667,26.23,72,97,0.75,CM,1695740241
548,haining,30.5363,120.6864,25.01,91,94,2.55,CN,1695740242
549,tweed heads,-28.1817,153.547,18.02,79,3,2.57,AU,1695740014
550,luling,29.9322,-90.3665,28.88,81,75,3.09,US,1695740242
551,newnham,-41.3833,147.1333,9.53,81,100,4.12,AU,1695740242
552,babolsar,36.7025,52.6576,24.18,73,100,3.57,IR,1695740242
553,diamantino,-14.4086,-56.4461,41.09,16,11,4.13,BR,1695740243
554,gamba,-2.65,10.0,25.49,80,89,4.85,GA,1695740243
555,conception bay south,47.4999,-52.9981,14.3,64,0,5.12,CA,1695740243
556,dolinsk,47.35,142.8,13.13,95,100,1.87,RU,1695740243
557,yoko,5.5333,12.3167,25.53,72,83,1.14,CM,1695740244
558,sarmiento,-45.5882,-69.07,10.11,41,3,12.35,AR,1695740244
559,kingston,17.997,-76.7936,32.91,73,20,2.06,JM,1695740136
560,gorgan,36.8387,54.4348,24.98,65,75,6.17,IR,1695740244
561,kolonia,50.9333,6.95,26.35,51,0,3.09,DE,1695740245
562,dourdan,48.5277,2.0111,26.4,60,100,2.24,FR,1695740245
563,laurel,39.0993,-76.8483,15.41,95,100,3.09,US,1695740193
564,piacabucu,-10.4056,-36.4344,28.82,58,69,6.1,BR,1695740002
565,pindobacu,-10.7417,-40.3608,34.39,28,28,3.76,BR,1695740246
566,lumut,4.2323,100.6298,27.01,89,20,1.03,MY,1695740246
567,eforie sud,44.0229,28.6494,25.45,64,55,10.55,RO,1695740246
568,rio preto da eva,-2.6994,-59.6997,39.9,28,61,1.41,BR,1695740247
